Time,City,Longitude,Latitude,Latest Data
2023-12-05 00:27:54,Tokyo,139.6917,35.6895,0.0368
2023-12-05 00:27:54,Hong Kong,114.1694,22.3193,0.16
2023-12-05 00:27:54,Taipei,121.5654,25.033,0.062
2023-12-05 00:27:54,Singapore,103.8198,1.3521,0.07
2023-12-05 00:27:54,Beijing,116.4074,39.9042,0.0747
2023-12-05 00:27:54,Shanghai,121.4737,31.2304,0.0755
2023-12-05 00:27:54,Guangzhou,113.2644,23.1291,0.103
2023-12-05 00:27:54,Ningbo,121.5504,29.8746,0.0865
