Time,City,Longitude,Latitude,Latest Data
2023-12-05 18:03:13,Tokyo,139.6917,35.6895,0.0395
2023-12-05 18:03:13,Hong Kong,114.1694,22.3193,0.16
2023-12-05 18:03:13,Taipei,121.5654,25.033,0.066
2023-12-05 18:03:13,Singapore,103.8198,1.3521,0.07
2023-12-05 18:03:13,Beijing,116.4074,39.9042,0.077
2023-12-05 18:03:13,Shanghai,121.4737,31.2304,0.0755
2023-12-05 18:03:13,Guangzhou,113.2644,23.1291,0.10490000000000001
2023-12-05 18:03:13,Ningbo,121.5504,29.8746,0.0897
